{
  "type": "FeatureCollection",
  "features": [
    {
      "type": "Feature",
      "geometry": {
        "type": "Point",
        "coordinates": [
          -6.332386,
          53.375258
        ]
      },
      "properties": {
        "id": "8220IR0013",
        "name": "Ashtown"
      }
    },
    {
      "type": "Feature",
      "geometry": {
        "type": "Point",
        "coordinates": [
          -6.313876,
          53.375249
        ]
      },
      "properties": {
        "id": "8220IR0014",
        "name": "Pelletstown"
      }
    },
    {
      "type": "Feature",
      "geometry": {
        "type": "Point",
        "coordinates": [
          -6.211644,
          53.320956
        ]
      },
      "properties": {
        "id": "8220IR0034",
        "name": "Sydney Parade"
      }
    },
    {
      "type": "Feature",
      "geometry": {
        "type": "Point",
        "coordinates": [
          -6.175818,
          53.381423
        ]
      },
      "properties": {
        "id": "8220IR0035",
        "name": "Raheny"
      }
    },
    {
      "type": "Feature",
      "geometry": {
        "type": "Point",
        "coordinates": [
          -6.37876,
          53.334009
        ]
      },
      "properties": {
        "id": "8220IR0129",
        "name": "Park West and Cherry Orchard"
      }
    },
    {
      "type": "Feature",
      "geometry": {
        "type": "Point",
        "coordinates": [
          -6.204046,
          53.372884
        ]
      },
      "properties": {
        "id": "8220IR3881",
        "name": "Killester"
      }
    },
    {
      "type": "Feature",
      "geometry": {
        "type": "Point",
        "coordinates": [
          -6.11091,
          53.22194
        ]
      },
      "properties": {
        "id": "8220WBROK",
        "name": "Woodbrook"
      }
    },
    {
      "type": "Feature",
      "geometry": {
        "type": "Point",
        "coordinates": [
          -7.24498,
          52.654955
        ]
      },
      "properties": {
        "id": "8270IR0064",
        "name": "Kilkenny (MacDonagh)"
      }
    },
    {
      "type": "Feature",
      "geometry": {
        "type": "Point",
        "coordinates": [
          -6.566417,
          52.504303
        ]
      },
      "properties": {
        "id": "8340IR0109",
        "name": "Enniscorthy"
      }
    },
    {
      "type": "Feature",
      "geometry": {
        "type": "Point",
        "coordinates": [
          -6.391356,
          52.27172
        ]
      },
      "properties": {
        "id": "8340IR0111",
        "name": "Rosslare Strand"
      }
    },
    {
      "type": "Feature",
      "geometry": {
        "type": "Point",
        "coordinates": [
          -6.362413,
          54.188659
        ]
      },
      "properties": {
        "id": "7040IR0042",
        "name": "Newry"
      }
    },
    {
      "type": "Feature",
      "geometry": {
        "type": "Point",
        "coordinates": [
          -6.338528,
          54.467011
        ]
      },
      "properties": {
        "id": "7040IR0090",
        "name": "Lurgan"
      }
    },
    {
      "type": "Feature",
      "geometry": {
        "type": "Point",
        "coordinates": [
          -6.345914,
          53.377708
        ]
      },
      "properties": {
        "id": "8240IR0015",
        "name": "Navan Road Parkway"
      }
    },
    {
      "type": "Feature",
      "geometry": {
        "type": "Point",
        "coordinates": [
          -6.118848,
          53.573977
        ]
      },
      "properties": {
        "id": "8240IR0023",
        "name": "Skerries"
      }
    },
    {
      "type": "Feature",
      "geometry": {
        "type": "Point",
        "coordinates": [
          -6.423078,
          53.383004
        ]
      },
      "properties": {
        "id": "8240IR0041",
        "name": "Clonsilla"
      }
    },
    {
      "type": "Feature",
      "geometry": {
        "type": "Point",
        "coordinates": [
          -6.143644,
          53.520782
        ]
      },
      "properties": {
        "id": "8240IR0130",
        "name": "Rush and Lusk"
      }
    },
    {
      "type": "Feature",
      "geometry": {
        "type": "Point",
        "coordinates": [
          -8.324376,
          51.869062
        ]
      },
      "properties": {
        "id": "8380IR0007",
        "name": "Carrigaloe"
      }
    },
    {
      "type": "Feature",
      "geometry": {
        "type": "Point",
        "coordinates": [
          -8.318616,
          51.895614
        ]
      },
      "properties": {
        "id": "8380IR0009",
        "name": "Fota"
      }
    },
    {
      "type": "Feature",
      "geometry": {
        "type": "Point",
        "coordinates": [
          -8.355584,
          51.907701
        ]
      },
      "properties": {
        "id": "8380IR0125",
        "name": "Little Island"
      }
    },
    {
      "type": "Feature",
      "geometry": {
        "type": "Point",
        "coordinates": [
          -8.175908,
          51.921027
        ]
      },
      "properties": {
        "id": "8380IR0142",
        "name": "Midleton"
      }
    },
    {
      "type": "Feature",
      "geometry": {
        "type": "Point",
        "coordinates": [
          -8.162103,
          52.470091
        ]
      },
      "properties": {
        "id": "8430IR0099",
        "name": "Tipperary"
      }
    },
    {
      "type": "Feature",
      "geometry": {
        "type": "Point",
        "coordinates": [
          -8.197243,
          52.503684
        ]
      },
      "properties": {
        "id": "8430IR0100",
        "name": "Limerick Junction"
      }
    },
    {
      "type": "Feature",
      "geometry": {
        "type": "Point",
        "coordinates": [
          -6.117228,
          53.236522
        ]
      },
      "properties": {
        "id": "8250IR0022",
        "name": "Shankill"
      }
    },
    {
      "type": "Feature",
      "geometry": {
        "type": "Point",
        "coordinates": [
          -6.19498,
          53.309921
        ]
      },
      "properties": {
        "id": "8250IR0039",
        "name": "Booterstown"
      }
    },
    {
      "type": "Feature",
      "geometry": {
        "type": "Point",
        "coordinates": [
          -6.15233,
          53.29526
        ]
      },
      "properties": {
        "id": "8250IR0042",
        "name": "Salthill and Monkstown"
      }
    },
    {
      "type": "Feature",
      "geometry": {
        "type": "Point",
        "coordinates": [
          -6.134575,
          53.294776
        ]
      },
      "properties": {
        "id": "8250IR0124",
        "name": "Dun Laoghaire (Mallin)"
      }
    },
    {
      "type": "Feature",
      "geometry": {
        "type": "Point",
        "coordinates": [
          -6.907936,
          53.162778
        ]
      },
      "properties": {
        "id": "8260IR0057",
        "name": "Kildare"
      }
    },
    {
      "type": "Feature",
      "geometry": {
        "type": "Point",
        "coordinates": [
          -6.523108,
          53.323003
        ]
      },
      "properties": {
        "id": "8260IR0063",
        "name": "Hazelhatch and Celbridge"
      }
    },
    {
      "type": "Feature",
      "geometry": {
        "type": "Point",
        "coordinates": [
          -7.916454,
          53.859239
        ]
      },
      "properties": {
        "id": "8480IR0069",
        "name": "Dromod"
      }
    },
    {
      "type": "Feature",
      "geometry": {
        "type": "Point",
        "coordinates": [
          -8.107176,
          53.93846
        ]
      },
      "properties": {
        "id": "8480IR0070",
        "name": "Carrick-on-Shannon"
      }
    },
    {
      "type": "Feature",
      "geometry": {
        "type": "Point",
        "coordinates": [
          -9.192956,
          53.827975
        ]
      },
      "properties": {
        "id": "8490IR0077",
        "name": "Manulla Junction"
      }
    },
    {
      "type": "Feature",
      "geometry": {
        "type": "Point",
        "coordinates": [
          -9.002144,
          53.720661
        ]
      },
      "properties": {
        "id": "8490IR0082",
        "name": "Claremorris"
      }
    },
    {
      "type": "Feature",
      "geometry": {
        "type": "Point",
        "coordinates": [
          -6.217406,
          53.638089
        ]
      },
      "properties": {
        "id": "8310IR0019",
        "name": "Gormanston"
      }
    },
    {
      "type": "Feature",
      "geometry": {
        "type": "Point",
        "coordinates": [
          -6.464602,
          53.416925
        ]
      },
      "properties": {
        "id": "8310IR0084",
        "name": "Dunboyne"
      }
    },
    {
      "type": "Feature",
      "geometry": {
        "type": "Point",
        "coordinates": [
          -6.832842,
          53.416677
        ]
      },
      "properties": {
        "id": "8310IR0085",
        "name": "Enfield"
      }
    },
    {
      "type": "Feature",
      "geometry": {
        "type": "Point",
        "coordinates": [
          -7.117956,
          52.26625
        ]
      },
      "properties": {
        "id": "8440IR0106",
        "name": "Waterford (Plunkett)"
      }
    },
    {
      "type": "Feature",
      "geometry": {
        "type": "Point",
        "coordinates": [
          -8.814752,
          53.157044
        ]
      },
      "properties": {
        "id": "8470IR0042",
        "name": "Ardrahan"
      }
    },
    {
      "type": "Feature",
      "geometry": {
        "type": "Point",
        "coordinates": [
          -8.472313,
          53.343162
        ]
      },
      "properties": {
        "id": "8470IR0048",
        "name": "Woodlawn"
      }
    },
    {
      "type": "Feature",
      "geometry": {
        "type": "Point",
        "coordinates": [
          -6.293487,
          53.346404
        ]
      },
      "properties": {
        "id": "8220IR0132",
        "name": "Dublin Heuston"
      }
    },
    {
      "type": "Feature",
      "geometry": {
        "type": "Point",
        "coordinates": [
          -6.237339,
          53.339625
        ]
      },
      "properties": {
        "id": "8220IR0135",
        "name": "Grand Canal Dock"
      }
    },
    {
      "type": "Feature",
      "geometry": {
        "type": "Point",
        "coordinates": [
          -6.430266,
          53.334408
        ]
      },
      "properties": {
        "id": "8220KISHO",
        "name": "Kishoge"
      }
    },
    {
      "type": "Feature",
      "geometry": {
        "type": "Point",
        "coordinates": [
          -7.148997,
          52.523049
        ]
      },
      "properties": {
        "id": "8270IR0065",
        "name": "Thomastown"
      }
    },
    {
      "type": "Feature",
      "geometry": {
        "type": "Point",
        "coordinates": [
          -6.292235,
          52.671374
        ]
      },
      "properties": {
        "id": "8340IR0110",
        "name": "Gorey"
      }
    },
    {
      "type": "Feature",
      "geometry": {
        "type": "Point",
        "coordinates": [
          -6.338331,
          52.251407
        ]
      },
      "properties": {
        "id": "8340IR0113",
        "name": "Rosslare Europort"
      }
    },
    {
      "type": "Feature",
      "geometry": {
        "type": "Point",
        "coordinates": [
          -6.100194,
          53.203712
        ]
      },
      "properties": {
        "id": "8350IR0123",
        "name": "Bray (Daly)"
      }
    },
    {
      "type": "Feature",
      "geometry": {
        "type": "Point",
        "coordinates": [
          -8.97545,
          52.839215
        ]
      },
      "properties": {
        "id": "8360IR0003",
        "name": "Ennis"
      }
    },
    {
      "type": "Feature",
      "geometry": {
        "type": "Point",
        "coordinates": [
          -8.785265,
          52.738061
        ]
      },
      "properties": {
        "id": "8360IR0010",
        "name": "Sixmilebridge"
      }
    },
    {
      "type": "Feature",
      "geometry": {
        "type": "Point",
        "coordinates": [
          -9.499003,
          52.0591
        ]
      },
      "properties": {
        "id": "8390IR0050",
        "name": "Killarney"
      }
    },
    {
      "type": "Feature",
      "geometry": {
        "type": "Point",
        "coordinates": [
          -9.2182,
          52.085249
        ]
      },
      "properties": {
        "id": "8390IR0051",
        "name": "Rathmore"
      }
    },
    {
      "type": "Feature",
      "geometry": {
        "type": "Point",
        "coordinates": [
          -9.699159,
          52.270977
        ]
      },
      "properties": {
        "id": "8390IR0052",
        "name": "Tralee Casement Station"
      }
    },
    {
      "type": "Feature",
      "geometry": {
        "type": "Point",
        "coordinates": [
          -6.045132,
          54.513863
        ]
      },
      "properties": {
        "id": "7020IR0037",
        "name": "Lisburn"
      }
    },
    {
      "type": "Feature",
      "geometry": {
        "type": "Point",
        "coordinates": [
          -6.445312,
          54.424993
        ]
      },
      "properties": {
        "id": "7040IR0045",
        "name": "Portadown"
      }
    },
    {
      "type": "Feature",
      "geometry": {
        "type": "Point",
        "coordinates": [
          -6.151344,
          53.485508
        ]
      },
      "properties": {
        "id": "8240IR0016",
        "name": "Donabate"
      }
    },
    {
      "type": "Feature",
      "geometry": {
        "type": "Point",
        "coordinates": [
          -6.074211,
          53.388893
        ]
      },
      "properties": {
        "id": "8240IR0017",
        "name": "Howth"
      }
    },
    {
      "type": "Feature",
      "geometry": {
        "type": "Point",
        "coordinates": [
          -6.115952,
          53.391905
        ]
      },
      "properties": {
        "id": "8240IR0024",
        "name": "Sutton"
      }
    },
    {
      "type": "Feature",
      "geometry": {
        "type": "Point",
        "coordinates": [
          -6.391524,
          53.377506
        ]
      },
      "properties": {
        "id": "8240IR0040",
        "name": "Coolmine"
      }
    },
    {
      "type": "Feature",
      "geometry": {
        "type": "Point",
        "coordinates": [
          -7.301227,
          53.036748
        ]
      },
      "properties": {
        "id": "8280IR0068",
        "name": "Portlaoise"
      }
    },
    {
      "type": "Feature",
      "geometry": {
        "type": "Point",
        "coordinates": [
          -6.335709,
          53.711842
        ]
      },
      "properties": {
        "id": "8300IR0074",
        "name": "Drogheda (MacBride)"
      }
    },
    {
      "type": "Feature",
      "geometry": {
        "type": "Point",
        "coordinates": [
          -6.412385,
          54.001087
        ]
      },
      "properties": {
        "id": "8300IR0075",
        "name": "Dundalk (Clarke)"
      }
    },
    {
      "type": "Feature",
      "geometry": {
        "type": "Point",
        "coordinates": [
          -7.61651,
          53.339842
        ]
      },
      "properties": {
        "id": "8320IR0088",
        "name": "Clara"
      }
    },
    {
      "type": "Feature",
      "geometry": {
        "type": "Point",
        "coordinates": [
          -6.922622,
          52.840788
        ]
      },
      "properties": {
        "id": "8210IR0002",
        "name": "Carlow"
      }
    },
    {
      "type": "Feature",
      "geometry": {
        "type": "Point",
        "coordinates": [
          -6.126937,
          53.288125
        ]
      },
      "properties": {
        "id": "8250IR0111",
        "name": "Sandycove and Glasthule"
      }
    },
    {
      "type": "Feature",
      "geometry": {
        "type": "Point",
        "coordinates": [
          -6.6688,
          53.398946
        ]
      },
      "properties": {
        "id": "8260IR0056",
        "name": "Kilcock"
      }
    },
    {
      "type": "Feature",
      "geometry": {
        "type": "Point",
        "coordinates": [
          -7.063798,
          53.145481
        ]
      },
      "properties": {
        "id": "8260IR0059",
        "name": "Monasterevin"
      }
    },
    {
      "type": "Feature",
      "geometry": {
        "type": "Point",
        "coordinates": [
          -7.603029,
          53.688865
        ]
      },
      "properties": {
        "id": "8290IR0073",
        "name": "Edgeworthstown"
      }
    },
    {
      "type": "Feature",
      "geometry": {
        "type": "Point",
        "coordinates": [
          -8.624813,
          52.658909
        ]
      },
      "properties": {
        "id": "8400IR0127",
        "name": "Limerick (Colbert)"
      }
    },
    {
      "type": "Feature",
      "geometry": {
        "type": "Point",
        "coordinates": [
          -7.822693,
          52.788104
        ]
      },
      "properties": {
        "id": "8420IR0097",
        "name": "Templemore Station"
      }
    },
    {
      "type": "Feature",
      "geometry": {
        "type": "Point",
        "coordinates": [
          -6.406279,
          53.33337
        ]
      },
      "properties": {
        "id": "8230IR0036",
        "name": "Clondalkin Fonthill"
      }
    },
    {
      "type": "Feature",
      "geometry": {
        "type": "Point",
        "coordinates": [
          -6.976597,
          52.992466
        ]
      },
      "properties": {
        "id": "8260IR0055",
        "name": "Athy"
      }
    },
    {
      "type": "Feature",
      "geometry": {
        "type": "Point",
        "coordinates": [
          -7.935736,
          53.426785
        ]
      },
      "properties": {
        "id": "8330IR0107",
        "name": "Athlone"
      }
    },
    {
      "type": "Feature",
      "geometry": {
        "type": "Point",
        "coordinates": [
          -7.346082,
          53.523035
        ]
      },
      "properties": {
        "id": "8330IR0108",
        "name": "Mullingar"
      }
    },
    {
      "type": "Feature",
      "geometry": {
        "type": "Point",
        "coordinates": [
          -8.24081,
          53.336282
        ]
      },
      "properties": {
        "id": "8470IR0046",
        "name": "Ballinasloe"
      }
    },
    {
      "type": "Feature",
      "geometry": {
        "type": "Point",
        "coordinates": [
          -8.304383,
          53.967594
        ]
      },
      "properties": {
        "id": "8500IR0090",
        "name": "Boyle"
      }
    },
    {
      "type": "Feature",
      "geometry": {
        "type": "Point",
        "coordinates": [
          -8.494876,
          54.18643
        ]
      },
      "properties": {
        "id": "8510IR0094",
        "name": "Collooney"
      }
    },
    {
      "type": "Feature",
      "geometry": {
        "type": "Point",
        "coordinates": [
          -6.249704,
          53.351252
        ]
      },
      "properties": {
        "id": "8220IR0007",
        "name": "Dublin Connolly"
      }
    },
    {
      "type": "Feature",
      "geometry": {
        "type": "Point",
        "coordinates": [
          -6.29869,
          53.372506
        ]
      },
      "properties": {
        "id": "8220IR0026",
        "name": "Broombridge"
      }
    },
    {
      "type": "Feature",
      "geometry": {
        "type": "Point",
        "coordinates": [
          -6.258578,
          53.363012
        ]
      },
      "properties": {
        "id": "8220IR0027",
        "name": "Drumcondra"
      }
    },
    {
      "type": "Feature",
      "geometry": {
        "type": "Point",
        "coordinates": [
          -6.220843,
          53.32784
        ]
      },
      "properties": {
        "id": "8220IR0028",
        "name": "Sandymount"
      }
    },
    {
      "type": "Feature",
      "geometry": {
        "type": "Point",
        "coordinates": [
          -6.229191,
          53.333963
        ]
      },
      "properties": {
        "id": "8220IR0133",
        "name": "Lansdowne Road"
      }
    },
    {
      "type": "Feature",
      "geometry": {
        "type": "Point",
        "coordinates": [
          -6.149029,
          53.402514
        ]
      },
      "properties": {
        "id": "8220IR0139",
        "name": "Clongriffin"
      }
    },
    {
      "type": "Feature",
      "geometry": {
        "type": "Point",
        "coordinates": [
          -6.16089,
          53.387472
        ]
      },
      "properties": {
        "id": "8220IR0141",
        "name": "Kilbarrack"
      }
    },
    {
      "type": "Feature",
      "geometry": {
        "type": "Point",
        "coordinates": [
          -6.159583,
          52.793921
        ]
      },
      "properties": {
        "id": "8350IR0118",
        "name": "Arklow"
      }
    },
    {
      "type": "Feature",
      "geometry": {
        "type": "Point",
        "coordinates": [
          -6.052894,
          52.988042
        ]
      },
      "properties": {
        "id": "8350IR0120",
        "name": "Wicklow"
      }
    },
    {
      "type": "Feature",
      "geometry": {
        "type": "Point",
        "coordinates": [
          -6.061128,
          53.144026
        ]
      },
      "properties": {
        "id": "8350IR0122",
        "name": "Greystones"
      }
    },
    {
      "type": "Feature",
      "geometry": {
        "type": "Point",
        "coordinates": [
          -9.55191,
          52.173786
        ]
      },
      "properties": {
        "id": "8390IR0053",
        "name": "Farranfore"
      }
    },
    {
      "type": "Feature",
      "geometry": {
        "type": "Point",
        "coordinates": [
          -8.498101,
          52.713293
        ]
      },
      "properties": {
        "id": "8410IR0071",
        "name": "Castleconnell"
      }
    },
    {
      "type": "Feature",
      "geometry": {
        "type": "Point",
        "coordinates": [
          -6.182205,
          53.611807
        ]
      },
      "properties": {
        "id": "8240IR0018",
        "name": "Balbriggan"
      }
    },
    {
      "type": "Feature",
      "geometry": {
        "type": "Point",
        "coordinates": [
          -6.155434,
          53.391496
        ]
      },
      "properties": {
        "id": "8240IR0025",
        "name": "Howth Junction and Donaghmede"
      }
    },
    {
      "type": "Feature",
      "geometry": {
        "type": "Point",
        "coordinates": [
          -6.371492,
          53.381576
        ]
      },
      "properties": {
        "id": "8240IR0031",
        "name": "Castleknock"
      }
    },
    {
      "type": "Feature",
      "geometry": {
        "type": "Point",
        "coordinates": [
          -6.151142,
          53.418177
        ]
      },
      "properties": {
        "id": "8240IR0138",
        "name": "Portmarnock"
      }
    },
    {
      "type": "Feature",
      "geometry": {
        "type": "Point",
        "coordinates": [
          -6.136925,
          53.391242
        ]
      },
      "properties": {
        "id": "8240IR0140",
        "name": "Bayside"
      }
    },
    {
      "type": "Feature",
      "geometry": {
        "type": "Point",
        "coordinates": [
          -7.180555,
          53.14605
        ]
      },
      "properties": {
        "id": "8280IR0067",
        "name": "Portarlington"
      }
    },
    {
      "type": "Feature",
      "geometry": {
        "type": "Point",
        "coordinates": [
          -7.50029,
          53.270418
        ]
      },
      "properties": {
        "id": "8320IR0087",
        "name": "Tullamore"
      }
    },
    {
      "type": "Feature",
      "geometry": {
        "type": "Point",
        "coordinates": [
          -8.32247,
          51.849419
        ]
      },
      "properties": {
        "id": "8380IR0005",
        "name": "Rushbrooke"
      }
    },
    {
      "type": "Feature",
      "geometry": {
        "type": "Point",
        "coordinates": [
          -8.325244,
          51.911289
        ]
      },
      "properties": {
        "id": "8380IR0008",
        "name": "Glounthaune"
      }
    },
    {
      "type": "Feature",
      "geometry": {
        "type": "Point",
        "coordinates": [
          -9.070677,
          52.077116
        ]
      },
      "properties": {
        "id": "8380IR0010",
        "name": "Millstreet"
      }
    },
    {
      "type": "Feature",
      "geometry": {
        "type": "Point",
        "coordinates": [
          -8.898573,
          52.128957
        ]
      },
      "properties": {
        "id": "8380IR0011",
        "name": "Banteer"
      }
    },
    {
      "type": "Feature",
      "geometry": {
        "type": "Point",
        "coordinates": [
          -8.299942,
          51.848734
        ]
      },
      "properties": {
        "id": "8380IR0012",
        "name": "Cobh"
      }
    },
    {
      "type": "Feature",
      "geometry": {
        "type": "Point",
        "coordinates": [
          -8.263214,
          51.916258
        ]
      },
      "properties": {
        "id": "8380IR0016",
        "name": "Carrigtwohill"
      }
    },
    {
      "type": "Feature",
      "geometry": {
        "type": "Point",
        "coordinates": [
          -7.922795,
          52.377832
        ]
      },
      "properties": {
        "id": "8430IR0102",
        "name": "Cahir"
      }
    },
    {
      "type": "Feature",
      "geometry": {
        "type": "Point",
        "coordinates": [
          -7.698633,
          52.360871
        ]
      },
      "properties": {
        "id": "8430IR0105",
        "name": "Clonmel"
      }
    },
    {
      "type": "Feature",
      "geometry": {
        "type": "Point",
        "coordinates": [
          -6.103358,
          53.275854
        ]
      },
      "properties": {
        "id": "8250IR0014",
        "name": "Dalkey"
      }
    },
    {
      "type": "Feature",
      "geometry": {
        "type": "Point",
        "coordinates": [
          -6.16512,
          53.299128
        ]
      },
      "properties": {
        "id": "8250IR0029",
        "name": "Seapoint"
      }
    },
    {
      "type": "Feature",
      "geometry": {
        "type": "Point",
        "coordinates": [
          -6.178846,
          53.302716
        ]
      },
      "properties": {
        "id": "8250IR0030",
        "name": "Blackrock"
      }
    },
    {
      "type": "Feature",
      "geometry": {
        "type": "Point",
        "coordinates": [
          -6.122893,
          53.281196
        ]
      },
      "properties": {
        "id": "8250IR0037",
        "name": "Glenageary"
      }
    },
    {
      "type": "Feature",
      "geometry": {
        "type": "Point",
        "coordinates": [
          -6.590566,
          53.378038
        ]
      },
      "properties": {
        "id": "8260IR0058",
        "name": "Maynooth"
      }
    },
    {
      "type": "Feature",
      "geometry": {
        "type": "Point",
        "coordinates": [
          -6.664586,
          53.247026
        ]
      },
      "properties": {
        "id": "8260IR0060",
        "name": "Sallins and Naas"
      }
    },
    {
      "type": "Feature",
      "geometry": {
        "type": "Point",
        "coordinates": [
          -6.485464,
          53.374065
        ]
      },
      "properties": {
        "id": "8260IR0062",
        "name": "Leixlip (Confey)"
      }
    },
    {
      "type": "Feature",
      "geometry": {
        "type": "Point",
        "coordinates": [
          -7.796346,
          53.724079
        ]
      },
      "properties": {
        "id": "8290IR0072",
        "name": "Longford"
      }
    },
    {
      "type": "Feature",
      "geometry": {
        "type": "Point",
        "coordinates": [
          -8.441806,
          52.766173
        ]
      },
      "properties": {
        "id": "8420IR0101",
        "name": "Birdhill"
      }
    },
    {
      "type": "Feature",
      "geometry": {
        "type": "Point",
        "coordinates": [
          -8.0246,
          52.936316
        ]
      },
      "properties": {
        "id": "8420IR0104",
        "name": "Cloughjordan"
      }
    },
    {
      "type": "Feature",
      "geometry": {
        "type": "Point",
        "coordinates": [
          -9.136433,
          53.982939
        ]
      },
      "properties": {
        "id": "8490IR0080",
        "name": "Foxford"
      }
    },
    {
      "type": "Feature",
      "geometry": {
        "type": "Point",
        "coordinates": [
          -9.288282,
          53.847519
        ]
      },
      "properties": {
        "id": "8490IR0081",
        "name": "Castlebar"
      }
    },
    {
      "type": "Feature",
      "geometry": {
        "type": "Point",
        "coordinates": [
          -6.808223,
          53.185394
        ]
      },
      "properties": {
        "id": "8260IR0054",
        "name": "Newbridge"
      }
    },
    {
      "type": "Feature",
      "geometry": {
        "type": "Point",
        "coordinates": [
          -6.242523,
          53.679359
        ]
      },
      "properties": {
        "id": "8310IR0086",
        "name": "Laytown"
      }
    },
    {
      "type": "Feature",
      "geometry": {
        "type": "Point",
        "coordinates": [
          -9.047075,
          53.273766
        ]
      },
      "properties": {
        "id": "8460IR0044",
        "name": "Galway (Ceannt)"
      }
    },
    {
      "type": "Feature",
      "geometry": {
        "type": "Point",
        "coordinates": [
          -8.606078,
          53.321204
        ]
      },
      "properties": {
        "id": "8470IR0047",
        "name": "Attymon"
      }
    },
    {
      "type": "Feature",
      "geometry": {
        "type": "Point",
        "coordinates": [
          -8.73576,
          53.225817
        ]
      },
      "properties": {
        "id": "8470IR0049",
        "name": "Craughwell"
      }
    },
    {
      "type": "Feature",
      "geometry": {
        "type": "Point",
        "coordinates": [
          -8.196312,
          53.624349
        ]
      },
      "properties": {
        "id": "8500IR0089",
        "name": "Roscommon"
      }
    },
    {
      "type": "Feature",
      "geometry": {
        "type": "Point",
        "coordinates": [
          -8.485715,
          53.76153
        ]
      },
      "properties": {
        "id": "8500IR0091",
        "name": "Castlerea"
      }
    },
    {
      "type": "Feature",
      "geometry": {
        "type": "Point",
        "coordinates": [
          -8.481925,
          54.271956
        ]
      },
      "properties": {
        "id": "8510IR0092",
        "name": "Sligo (MacDiarmada)"
      }
    },
    {
      "type": "Feature",
      "geometry": {
        "type": "Point",
        "coordinates": [
          -8.52155,
          54.088241
        ]
      },
      "properties": {
        "id": "8510IR0093",
        "name": "Ballymote"
      }
    },
    {
      "type": "Feature",
      "geometry": {
        "type": "Point",
        "coordinates": [
          -6.254359,
          53.347264
        ]
      },
      "properties": {
        "id": "8220IR0025",
        "name": "Tara Street"
      }
    },
    {
      "type": "Feature",
      "geometry": {
        "type": "Point",
        "coordinates": [
          -6.226784,
          53.363077
        ]
      },
      "properties": {
        "id": "8220IR0032",
        "name": "Clontarf Road"
      }
    },
    {
      "type": "Feature",
      "geometry": {
        "type": "Point",
        "coordinates": [
          -6.19131,
          53.378643
        ]
      },
      "properties": {
        "id": "8220IR0131",
        "name": "Harmonstown"
      }
    },
    {
      "type": "Feature",
      "geometry": {
        "type": "Point",
        "coordinates": [
          -6.248048,
          53.343252
        ]
      },
      "properties": {
        "id": "8220IR0134",
        "name": "Dublin Pearse"
      }
    },
    {
      "type": "Feature",
      "geometry": {
        "type": "Point",
        "coordinates": [
          -6.239286,
          53.350876
        ]
      },
      "properties": {
        "id": "8220IR0137",
        "name": "Docklands"
      }
    },
    {
      "type": "Feature",
      "geometry": {
        "type": "Point",
        "coordinates": [
          -6.464389,
          52.343201
        ]
      },
      "properties": {
        "id": "8340IR0112",
        "name": "Wexford (O Hanrahan)"
      }
    },
    {
      "type": "Feature",
      "geometry": {
        "type": "Point",
        "coordinates": [
          -6.226418,
          52.93035
        ]
      },
      "properties": {
        "id": "8350IR0119",
        "name": "Rathdrum"
      }
    },
    {
      "type": "Feature",
      "geometry": {
        "type": "Point",
        "coordinates": [
          -6.041121,
          53.106971
        ]
      },
      "properties": {
        "id": "8350IR0121",
        "name": "Kilcoole"
      }
    },
    {
      "type": "Feature",
      "geometry": {
        "type": "Point",
        "coordinates": [
          -5.939831,
          54.594684
        ]
      },
      "properties": {
        "id": "7020IR2162",
        "name": "Belfast"
      }
    },
    {
      "type": "Feature",
      "geometry": {
        "type": "Point",
        "coordinates": [
          -6.156293,
          53.450686
        ]
      },
      "properties": {
        "id": "8240IR0020",
        "name": "Malahide"
      }
    },
    {
      "type": "Feature",
      "geometry": {
        "type": "Point",
        "coordinates": [
          -6.441785,
          53.386938
        ]
      },
      "properties": {
        "id": "8240IR0030",
        "name": "Hansfield"
      }
    },
    {
      "type": "Feature",
      "geometry": {
        "type": "Point",
        "coordinates": [
          -7.600913,
          52.900756
        ]
      },
      "properties": {
        "id": "8280IR0066",
        "name": "Ballybrophy"
      }
    },
    {
      "type": "Feature",
      "geometry": {
        "type": "Point",
        "coordinates": [
          -8.458343,
          51.901363
        ]
      },
      "properties": {
        "id": "8370IR0126",
        "name": "Cork (Kent)"
      }
    },
    {
      "type": "Feature",
      "geometry": {
        "type": "Point",
        "coordinates": [
          -8.654962,
          52.138563
        ]
      },
      "properties": {
        "id": "8380IR0004",
        "name": "Mallow"
      }
    },
    {
      "type": "Feature",
      "geometry": {
        "type": "Point",
        "coordinates": [
          -8.653624,
          52.347171
        ]
      },
      "properties": {
        "id": "8380IR0006",
        "name": "Charleville"
      }
    },
    {
      "type": "Feature",
      "geometry": {
        "type": "Point",
        "coordinates": [
          -7.404866,
          52.349096
        ]
      },
      "properties": {
        "id": "8430IR0103",
        "name": "Carrick-on-Suir"
      }
    },
    {
      "type": "Feature",
      "geometry": {
        "type": "Point",
        "coordinates": [
          -6.952653,
          52.69918
        ]
      },
      "properties": {
        "id": "8210IR0001",
        "name": "Muine Bheag (Bagenalstown)"
      }
    },
    {
      "type": "Feature",
      "geometry": {
        "type": "Point",
        "coordinates": [
          -6.113167,
          53.25571
        ]
      },
      "properties": {
        "id": "8250IR0021",
        "name": "Killiney"
      }
    },
    {
      "type": "Feature",
      "geometry": {
        "type": "Point",
        "coordinates": [
          -6.506275,
          53.370063
        ]
      },
      "properties": {
        "id": "8260IR0061",
        "name": "Leixlip (Louisa Bridge)"
      }
    },
    {
      "type": "Feature",
      "geometry": {
        "type": "Point",
        "coordinates": [
          -8.195742,
          52.860593
        ]
      },
      "properties": {
        "id": "8420IR0095",
        "name": "Nenagh"
      }
    },
    {
      "type": "Feature",
      "geometry": {
        "type": "Point",
        "coordinates": [
          -7.794415,
          52.960557
        ]
      },
      "properties": {
        "id": "8420IR0096",
        "name": "Roscrea"
      }
    },
    {
      "type": "Feature",
      "geometry": {
        "type": "Point",
        "coordinates": [
          -7.821568,
          52.676987
        ]
      },
      "properties": {
        "id": "8420IR0098",
        "name": "Thurles"
      }
    },
    {
      "type": "Feature",
      "geometry": {
        "type": "Point",
        "coordinates": [
          -9.160596,
          54.109063
        ]
      },
      "properties": {
        "id": "8490IR0076",
        "name": "Ballina"
      }
    },
    {
      "type": "Feature",
      "geometry": {
        "type": "Point",
        "coordinates": [
          -9.510052,
          53.796207
        ]
      },
      "properties": {
        "id": "8490IR0078",
        "name": "Westport"
      }
    },
    {
      "type": "Feature",
      "geometry": {
        "type": "Point",
        "coordinates": [
          -8.758716,
          53.761772
        ]
      },
      "properties": {
        "id": "8490IR0079",
        "name": "Ballyhaunis"
      }
    },
    {
      "type": "Feature",
      "geometry": {
        "type": "Point",
        "coordinates": [
          -6.46911,
          53.336295
        ]
      },
      "properties": {
        "id": "8230IR0128",
        "name": "Adamstown"
      }
    },
    {
      "type": "Feature",
      "geometry": {
        "type": "Point",
        "coordinates": [
          -6.469195,
          53.43514
        ]
      },
      "properties": {
        "id": "8310IR0083",
        "name": "M3 Parkway"
      }
    },
    {
      "type": "Feature",
      "geometry": {
        "type": "Point",
        "coordinates": [
          -8.748547,
          53.30153
        ]
      },
      "properties": {
        "id": "8470IR0043",
        "name": "Athenry"
      }
    },
    {
      "type": "Feature",
      "geometry": {
        "type": "Point",
        "coordinates": [
          -8.815618,
          53.066314
        ]
      },
      "properties": {
        "id": "8470IR0045",
        "name": "Gort"
      }
    },
    {
      "type": "Feature",
      "geometry": {
        "type": "Point",
        "coordinates": [
          -8.946804,
          53.27558
        ]
      },
      "properties": {
        "id": "8470IR050",
        "name": "Oranmore"
      }
    }
  ]
}